{
  "last_updated": "2026-07-22T16:25:12.659418",
  "entries": [
    {
      "station": "GUA",
      "earthquake_time": "2025-12-15 23:06:14.731",
      "first_logged": "2025-12-22T17:57:15.889380",
      "earthquake_magnitude": 5.7,
      "earthquake_distance_km": 134.7000869784241,
      "earthquake_place": "72 km SSE of San Jose Village, Northern Mariana Islands",
      "earthquake_latitude": 14.35,
      "earthquake_longitude": 145.8393,
      "last_confirmed": "2025-12-22T17:57:15.889380",
      "source_file": "false_negatives.csv"
    },
    {
      "station": "MMB",
      "earthquake_time": "2025-12-20 12:30:32.074",
      "first_logged": "2025-12-22T17:57:15.889380",
      "earthquake_magnitude": 5.3,
      "earthquake_distance_km": 196.0146437156127,
      "earthquake_place": "73 km SSE of Nemuro, Japan",
      "earthquake_latitude": 42.7295,
      "earthquake_longitude": 145.985,
      "last_confirmed": "2025-12-22T17:57:15.889380",
      "source_file": "false_negatives.csv"
    },
    {
      "station": "MMB",
      "earthquake_time": "2025-12-20 12:58:54.973",
      "first_logged": "2025-12-22T17:57:15.889380",
      "earthquake_magnitude": 5.2,
      "earthquake_distance_km": 196.17025304951017,
      "earthquake_place": "74 km SSE of Nemuro, Japan",
      "earthquake_latitude": 42.724,
      "earthquake_longitude": 145.9807,
      "last_confirmed": "2025-12-22T17:57:15.889380",
      "source_file": "false_negatives.csv"
    },
    {
      "station": "KNY",
      "earthquake_time": "2025-12-21 06:58:48.287",
      "first_logged": "2025-12-22T17:57:15.889380",
      "earthquake_magnitude": 5.1,
      "earthquake_distance_km": 165.17432168540054,
      "earthquake_place": "126 km ESE of \u014chara, Japan",
      "earthquake_latitude": 34.7941,
      "earthquake_longitude": 141.6701,
      "last_confirmed": "2025-12-22T17:57:15.889380",
      "source_file": "false_negatives.csv"
    },
    {
      "station": "SJG",
      "earthquake_time": "2026-02-19 14:18:06.650",
      "first_logged": "2026-07-22T16:25:12.653275",
      "earthquake_magnitude": 5.1,
      "earthquake_distance_km": 198.99123300127954,
      "earthquake_place": "155 km N of Arecibo, Puerto Rico",
      "earthquake_latitude": 19.8711,
      "earthquake_longitude": -66.5455,
      "last_confirmed": "2026-07-22T16:25:12.653275",
      "source_file": "false_negatives.csv"
    },
    {
      "station": "MMB",
      "earthquake_time": "2026-04-26 20:23:55.589",
      "first_logged": "2026-07-22T16:25:12.653275",
      "earthquake_magnitude": 6.1,
      "earthquake_distance_km": 169.97284978158984,
      "earthquake_place": "25 km WNW of Sarabetsu, Japan",
      "earthquake_latitude": 42.7138,
      "earthquake_longitude": 142.8827,
      "last_confirmed": "2026-07-22T16:25:12.653275",
      "source_file": "false_negatives.csv"
    },
    {
      "station": "KAK",
      "earthquake_time": "2026-06-26 03:46:35.803",
      "first_logged": "2026-07-22T16:25:12.653275",
      "earthquake_magnitude": 5.8,
      "earthquake_distance_km": 72.76933337629175,
      "earthquake_place": "3 km SE of Yokoshiba, Japan",
      "earthquake_latitude": 35.6314,
      "earthquake_longitude": 140.5099,
      "last_confirmed": "2026-07-22T16:25:12.653275",
      "source_file": "false_negatives.csv"
    },
    {
      "station": "KNY",
      "earthquake_time": "2026-06-26 03:46:35.803",
      "first_logged": "2026-07-22T16:25:12.653275",
      "earthquake_magnitude": 5.8,
      "earthquake_distance_km": 65.36637538481756,
      "earthquake_place": "3 km SE of Yokoshiba, Japan",
      "earthquake_latitude": 35.6314,
      "earthquake_longitude": 140.5099,
      "last_confirmed": "2026-07-22T16:25:12.653275",
      "source_file": "false_negatives.csv"
    },
    {
      "station": "KAK",
      "earthquake_time": "2026-06-26 13:29:01.036",
      "first_logged": "2026-07-22T16:25:12.653275",
      "earthquake_magnitude": 5.2,
      "earthquake_distance_km": 129.61914417877549,
      "earthquake_place": "1 km S of \u014ctsuki, Japan",
      "earthquake_latitude": 35.6048,
      "earthquake_longitude": 138.9744,
      "last_confirmed": "2026-07-22T16:25:12.653275",
      "source_file": "false_negatives.csv"
    },
    {
      "station": "KNY",
      "earthquake_time": "2026-06-26 13:29:01.036",
      "first_logged": "2026-07-22T16:25:12.653275",
      "earthquake_magnitude": 5.2,
      "earthquake_distance_km": 96.57927194625114,
      "earthquake_place": "1 km S of \u014ctsuki, Japan",
      "earthquake_latitude": 35.6048,
      "earthquake_longitude": 138.9744,
      "last_confirmed": "2026-07-22T16:25:12.653275",
      "source_file": "false_negatives.csv"
    },
    {
      "station": "SHU",
      "earthquake_time": "2026-07-14 12:12:19.529",
      "first_logged": "2026-07-22T16:25:12.653275",
      "earthquake_magnitude": 5.3,
      "earthquake_distance_km": 189.29809692316422,
      "earthquake_place": "96 km SE of False Pass, Alaska",
      "earthquake_latitude": 54.1456,
      "earthquake_longitude": -162.543,
      "last_confirmed": "2026-07-22T16:25:12.653275",
      "source_file": "false_negatives.csv"
    },
    {
      "station": "SHU",
      "earthquake_time": "2026-07-14 18:51:07.308",
      "first_logged": "2026-07-22T16:25:12.653275",
      "earthquake_magnitude": 5.4,
      "earthquake_distance_km": 191.3230809787733,
      "earthquake_place": "90 km SSE of False Pass, Alaska",
      "earthquake_latitude": 54.1759,
      "earthquake_longitude": -162.6381,
      "last_confirmed": "2026-07-22T16:25:12.653275",
      "source_file": "false_negatives.csv"
    },
    {
      "station": "API",
      "earthquake_time": "2026-07-20 23:37:57.854",
      "first_logged": "2026-07-22T16:25:12.653275",
      "earthquake_magnitude": 5.0,
      "earthquake_distance_km": 173.74078933560108,
      "earthquake_place": "141 km SSW of Gataivai, Samoa",
      "earthquake_latitude": -14.9677,
      "earthquake_longitude": -172.8619,
      "last_confirmed": "2026-07-22T16:25:12.653275",
      "source_file": "false_negatives.csv"
    },
    {
      "station": "GUA",
      "earthquake_time": "2026-07-21 11:09:45.478",
      "first_logged": "2026-07-22T16:25:12.653275",
      "earthquake_magnitude": 5.0,
      "earthquake_distance_km": 99.79814532056874,
      "earthquake_place": "58 km SSW of Merizo Village, Guam",
      "earthquake_latitude": 12.8216,
      "earthquake_longitude": 144.3814,
      "last_confirmed": "2026-07-22T16:25:12.653275",
      "source_file": "false_negatives.csv"
    }
  ]
}